{
  "city_key": "london",
  "city_name": "London",
  "ingestion_date": "2026-06-08",
  "total_venues": 100,
  "elements": [
    {
      "osm_id": 25475389,
      "city_key": "london",
      "city_name": "London",
      "name": "Woburn Cafe",
      "amenity": "cafe",
      "cuisine": null,
      "latitude": 51.5265807,
      "longitude": -0.1292505,
      "opening_hours": null,
      "ingested_at_utc": "2026-06-08T12:04:37.362272+00:00",
      "ingestion_date": "2026-06-08"
    },
    {
      "osm_id": 25497832,
      "city_key": "london",
      "city_name": "London",
      "name": "Cafe Angel",
      "amenity": "cafe",
      "cuisine": null,
      "latitude": 51.5247641,
      "longitude": -0.1161125,
      "opening_hours": null,
      "ingested_at_utc": "2026-06-08T12:04:37.362272+00:00",
      "ingestion_date": "2026-06-08"
    },
    {
      "osm_id": 26845558,
      "city_key": "london",
      "city_name": "London",
      "name": "Old Tree Daiwan Bee",
      "amenity": "restaurant",
      "cuisine": "taiwanese",
      "latitude": 51.5110542,
      "longitude": -0.1325596,
      "opening_hours": null,
      "ingested_at_utc": "2026-06-08T12:04:37.362272+00:00",
      "ingestion_date": "2026-06-08"
    },
    {
      "osm_id": 60660465,
      "city_key": "london",
      "city_name": "London",
      "name": "Farmer J",
      "amenity": "fast_food",
      "cuisine": "regional",
      "latitude": 51.5229924,
      "longitude": -0.1257455,
      "opening_hours": null,
      "ingested_at_utc": "2026-06-08T12:04:37.362272+00:00",
      "ingestion_date": "2026-06-08"
    },
    {
      "osm_id": 96008565,
      "city_key": "london",
      "city_name": "London",
      "name": "Bistrotheque",
      "amenity": "restaurant",
      "cuisine": null,
      "latitude": 51.5340961,
      "longitude": -0.0560633,
      "opening_hours": null,
      "ingested_at_utc": "2026-06-08T12:04:37.362272+00:00",
      "ingestion_date": "2026-06-08"
    },
    {
      "osm_id": 96229448,
      "city_key": "london",
      "city_name": "London",
      "name": "Mithai Ghar",
      "amenity": "restaurant",
      "cuisine": null,
      "latitude": 51.517788,
      "longitude": -0.0656989,
      "opening_hours": null,
      "ingested_at_utc": "2026-06-08T12:04:37.362272+00:00",
      "ingestion_date": "2026-06-08"
    },
    {
      "osm_id": 108035514,
      "city_key": "london",
      "city_name": "London",
      "name": "A toca",
      "amenity": "restaurant",
      "cuisine": "portuguese",
      "latitude": 51.47539,
      "longitude": -0.1312087,
      "opening_hours": null,
      "ingested_at_utc": "2026-06-08T12:04:37.362272+00:00",
      "ingestion_date": "2026-06-08"
    },
    {
      "osm_id": 130210673,
      "city_key": "london",
      "city_name": "London",
      "name": "The Serpentine Lido Cafe",
      "amenity": "cafe",
      "cuisine": null,
      "latitude": 51.5046688,
      "longitude": -0.1696555,
      "opening_hours": null,
      "ingested_at_utc": "2026-06-08T12:04:37.362272+00:00",
      "ingestion_date": "2026-06-08"
    },
    {
      "osm_id": 132957893,
      "city_key": "london",
      "city_name": "London",
      "name": "Alba",
      "amenity": "restaurant",
      "cuisine": "pizza",
      "latitude": 51.4651993,
      "longitude": -0.1291139,
      "opening_hours": null,
      "ingested_at_utc": "2026-06-08T12:04:37.362272+00:00",
      "ingestion_date": "2026-06-08"
    },
    {
      "osm_id": 132978018,
      "city_key": "london",
      "city_name": "London",
      "name": "Ferndales",
      "amenity": "restaurant",
      "cuisine": "pizza",
      "latitude": 51.4629835,
      "longitude": -0.1239279,
      "opening_hours": "We-Su 18:00-22:00",
      "ingested_at_utc": "2026-06-08T12:04:37.362272+00:00",
      "ingestion_date": "2026-06-08"
    },
    {
      "osm_id": 140681851,
      "city_key": "london",
      "city_name": "London",
      "name": "Starbucks",
      "amenity": "cafe",
      "cuisine": "coffee_shop",
      "latitude": 51.4989916,
      "longitude": -0.1354995,
      "opening_hours": "Mo-Fr 06:00-19:00; Sa 09:00-17:00",
      "ingested_at_utc": "2026-06-08T12:04:37.362272+00:00",
      "ingestion_date": "2026-06-08"
    },
    {
      "osm_id": 140697749,
      "city_key": "london",
      "city_name": "London",
      "name": "Greggs",
      "amenity": "fast_food",
      "cuisine": "sandwich;bakery",
      "latitude": 51.4982302,
      "longitude": -0.1352163,
      "opening_hours": null,
      "ingested_at_utc": "2026-06-08T12:04:37.362272+00:00",
      "ingestion_date": "2026-06-08"
    },
    {
      "osm_id": 169355678,
      "city_key": "london",
      "city_name": "London",
      "name": "Bon Gusto",
      "amenity": "restaurant",
      "cuisine": "italian",
      "latitude": 51.4992102,
      "longitude": -0.1378188,
      "opening_hours": null,
      "ingested_at_utc": "2026-06-08T12:04:37.362272+00:00",
      "ingestion_date": "2026-06-08"
    },
    {
      "osm_id": 169368767,
      "city_key": "london",
      "city_name": "London",
      "name": "Bank Restaurant & Bar",
      "amenity": "restaurant",
      "cuisine": null,
      "latitude": 51.4986304,
      "longitude": -0.1372558,
      "opening_hours": null,
      "ingested_at_utc": "2026-06-08T12:04:37.362272+00:00",
      "ingestion_date": "2026-06-08"
    },
    {
      "osm_id": 169436940,
      "city_key": "london",
      "city_name": "London",
      "name": "Buckingham Coffee Lounge",
      "amenity": "cafe",
      "cuisine": null,
      "latitude": 51.4987752,
      "longitude": -0.1412257,
      "opening_hours": null,
      "ingested_at_utc": "2026-06-08T12:04:37.362272+00:00",
      "ingestion_date": "2026-06-08"
    },
    {
      "osm_id": 180403503,
      "city_key": "london",
      "city_name": "London",
      "name": "Spaghetti House",
      "amenity": "restaurant",
      "cuisine": "italian",
      "latitude": 51.5186204,
      "longitude": -0.1214512,
      "opening_hours": null,
      "ingested_at_utc": "2026-06-08T12:04:37.362272+00:00",
      "ingestion_date": "2026-06-08"
    },
    {
      "osm_id": 244056695,
      "city_key": "london",
      "city_name": "London",
      "name": "Beans & Beyond",
      "amenity": "cafe",
      "cuisine": null,
      "latitude": 51.5246924,
      "longitude": -0.0752813,
      "opening_hours": null,
      "ingested_at_utc": "2026-06-08T12:04:37.362272+00:00",
      "ingestion_date": "2026-06-08"
    },
    {
      "osm_id": 247957988,
      "city_key": "london",
      "city_name": "London",
      "name": "Las Iguanas",
      "amenity": "restaurant",
      "cuisine": "brazilian",
      "latitude": 51.5055602,
      "longitude": -0.1176655,
      "opening_hours": "Mo-Th 11:00-22:30; Fr-Sa 11:00-23:00; Su 11:00-22:00",
      "ingested_at_utc": "2026-06-08T12:04:37.362272+00:00",
      "ingestion_date": "2026-06-08"
    },
    {
      "osm_id": 248443149,
      "city_key": "london",
      "city_name": "London",
      "name": "Waterhouse",
      "amenity": "restaurant",
      "cuisine": null,
      "latitude": 51.5366022,
      "longitude": -0.0789765,
      "opening_hours": null,
      "ingested_at_utc": "2026-06-08T12:04:37.362272+00:00",
      "ingestion_date": "2026-06-08"
    },
    {
      "osm_id": 248933563,
      "city_key": "london",
      "city_name": "London",
      "name": "No. 32 The Old Town",
      "amenity": "restaurant",
      "cuisine": null,
      "latitude": 51.4631647,
      "longitude": -0.1407101,
      "opening_hours": "09:00 - 23:00",
      "ingested_at_utc": "2026-06-08T12:04:37.362272+00:00",
      "ingestion_date": "2026-06-08"
    },
    {
      "osm_id": 249314702,
      "city_key": "london",
      "city_name": "London",
      "name": "Turk's Head Cafe",
      "amenity": "cafe",
      "cuisine": "international",
      "latitude": 51.5042616,
      "longitude": -0.0612495,
      "opening_hours": "Mo 16:00-22:00; Tu-Fr 18:00-23:00; Sa 09:00-23:00",
      "ingested_at_utc": "2026-06-08T12:04:37.362272+00:00",
      "ingestion_date": "2026-06-08"
    },
    {
      "osm_id": 256497884,
      "city_key": "london",
      "city_name": "London",
      "name": "The Garrick",
      "amenity": "cafe",
      "cuisine": null,
      "latitude": 51.5134807,
      "longitude": -0.1165232,
      "opening_hours": "Mo-Fr 08:00-19:00",
      "ingested_at_utc": "2026-06-08T12:04:37.362272+00:00",
      "ingestion_date": "2026-06-08"
    },
    {
      "osm_id": 257464737,
      "city_key": "london",
      "city_name": "London",
      "name": "Pizza Hut Delivery",
      "amenity": "fast_food",
      "cuisine": "pizza",
      "latitude": 51.4936329,
      "longitude": -0.2403793,
      "opening_hours": "Mo-Th 11:30-23:00; Fr-Sa 11:00-24:00; Su 11:30-23:00",
      "ingested_at_utc": "2026-06-08T12:04:37.362272+00:00",
      "ingestion_date": "2026-06-08"
    },
    {
      "osm_id": 259086194,
      "city_key": "london",
      "city_name": "London",
      "name": "La Figa",
      "amenity": "restaurant",
      "cuisine": "italian",
      "latitude": 51.510079,
      "longitude": -0.0394268,
      "opening_hours": "Mo-Sa 12:00-23:00, Sa 13:00-23:00, Su 13:00-22:30",
      "ingested_at_utc": "2026-06-08T12:04:37.362272+00:00",
      "ingestion_date": "2026-06-08"
    },
    {
      "osm_id": 259086195,
      "city_key": "london",
      "city_name": "London",
      "name": "Holy Cow",
      "amenity": "restaurant",
      "cuisine": "indian",
      "latitude": 51.5100406,
      "longitude": -0.0387991,
      "opening_hours": "Mo-Su 14:00-23:00",
      "ingested_at_utc": "2026-06-08T12:04:37.362272+00:00",
      "ingestion_date": "2026-06-08"
    },
    {
      "osm_id": 259569252,
      "city_key": "london",
      "city_name": "London",
      "name": "Goya",
      "amenity": "restaurant",
      "cuisine": "tapas",
      "latitude": 51.4884009,
      "longitude": -0.1374885,
      "opening_hours": null,
      "ingested_at_utc": "2026-06-08T12:04:37.362272+00:00",
      "ingestion_date": "2026-06-08"
    },
    {
      "osm_id": 259774384,
      "city_key": "london",
      "city_name": "London",
      "name": "Sketch",
      "amenity": "restaurant",
      "cuisine": null,
      "latitude": 51.5127342,
      "longitude": -0.1414857,
      "opening_hours": null,
      "ingested_at_utc": "2026-06-08T12:04:37.362272+00:00",
      "ingestion_date": "2026-06-08"
    },
    {
      "osm_id": 260124921,
      "city_key": "london",
      "city_name": "London",
      "name": "McDonald's",
      "amenity": "fast_food",
      "cuisine": "burger",
      "latitude": 51.5148992,
      "longitude": -0.0596548,
      "opening_hours": "24/7",
      "ingested_at_utc": "2026-06-08T12:04:37.362272+00:00",
      "ingestion_date": "2026-06-08"
    },
    {
      "osm_id": 260283878,
      "city_key": "london",
      "city_name": "London",
      "name": "KFC",
      "amenity": "fast_food",
      "cuisine": "chicken",
      "latitude": 51.540145,
      "longitude": -0.1439007,
      "opening_hours": null,
      "ingested_at_utc": "2026-06-08T12:04:37.362272+00:00",
      "ingestion_date": "2026-06-08"
    },
    {
      "osm_id": 261269878,
      "city_key": "london",
      "city_name": "London",
      "name": "The Full Monty",
      "amenity": "restaurant",
      "cuisine": null,
      "latitude": 51.52821,
      "longitude": -0.0509194,
      "opening_hours": null,
      "ingested_at_utc": "2026-06-08T12:04:37.362272+00:00",
      "ingestion_date": "2026-06-08"
    },
    {
      "osm_id": 261269898,
      "city_key": "london",
      "city_name": "London",
      "name": "Suey Hong",
      "amenity": "fast_food",
      "cuisine": "chinese",
      "latitude": 51.5281476,
      "longitude": -0.050883,
      "opening_hours": null,
      "ingested_at_utc": "2026-06-08T12:04:37.362272+00:00",
      "ingestion_date": "2026-06-08"
    },
    {
      "osm_id": 261287273,
      "city_key": "london",
      "city_name": "London",
      "name": "Pret A Manger",
      "amenity": "fast_food",
      "cuisine": "sandwich",
      "latitude": 51.4726798,
      "longitude": -0.1225008,
      "opening_hours": null,
      "ingested_at_utc": "2026-06-08T12:04:37.362272+00:00",
      "ingestion_date": "2026-06-08"
    },
    {
      "osm_id": 261325961,
      "city_key": "london",
      "city_name": "London",
      "name": "Tia Maria Bar & Kitchen",
      "amenity": "restaurant",
      "cuisine": "brazilian",
      "latitude": 51.4808939,
      "longitude": -0.12483,
      "opening_hours": "Mo-Th, Su 12:00-00:00; Fr, Sa 12:00-01:00",
      "ingested_at_utc": "2026-06-08T12:04:37.362272+00:00",
      "ingestion_date": "2026-06-08"
    },
    {
      "osm_id": 262562858,
      "city_key": "london",
      "city_name": "London",
      "name": "Il Pirata London",
      "amenity": "restaurant",
      "cuisine": "italian",
      "latitude": 51.5032228,
      "longitude": -0.0596251,
      "opening_hours": null,
      "ingested_at_utc": "2026-06-08T12:04:37.362272+00:00",
      "ingestion_date": "2026-06-08"
    },
    {
      "osm_id": 262565580,
      "city_key": "london",
      "city_name": "London",
      "name": "Giraffe",
      "amenity": "restaurant",
      "cuisine": "international;burger",
      "latitude": 51.5063119,
      "longitude": -0.1171395,
      "opening_hours": "Mo-Th 08:00-23:00;Fr 08:00-23:30;Sa 09:00-23:30;Su 09:00-22:30",
      "ingested_at_utc": "2026-06-08T12:04:37.362272+00:00",
      "ingestion_date": "2026-06-08"
    },
    {
      "osm_id": 262565828,
      "city_key": "london",
      "city_name": "London",
      "name": "PizzaExpress",
      "amenity": "restaurant",
      "cuisine": "pizza",
      "latitude": 51.4888419,
      "longitude": -0.137108,
      "opening_hours": null,
      "ingested_at_utc": "2026-06-08T12:04:37.362272+00:00",
      "ingestion_date": "2026-06-08"
    },
    {
      "osm_id": 264137221,
      "city_key": "london",
      "city_name": "London",
      "name": "River View Restaurant",
      "amenity": "restaurant",
      "cuisine": null,
      "latitude": 51.505619,
      "longitude": -0.054029,
      "opening_hours": null,
      "ingested_at_utc": "2026-06-08T12:04:37.362272+00:00",
      "ingestion_date": "2026-06-08"
    },
    {
      "osm_id": 264515393,
      "city_key": "london",
      "city_name": "London",
      "name": "Coco di Mama",
      "amenity": "fast_food",
      "cuisine": "italian",
      "latitude": 51.517658,
      "longitude": -0.1210393,
      "opening_hours": null,
      "ingested_at_utc": "2026-06-08T12:04:37.362272+00:00",
      "ingestion_date": "2026-06-08"
    },
    {
      "osm_id": 264515707,
      "city_key": "london",
      "city_name": "London",
      "name": "McDonald's",
      "amenity": "fast_food",
      "cuisine": "burger",
      "latitude": 51.5177884,
      "longitude": -0.119722,
      "opening_hours": "24/7",
      "ingested_at_utc": "2026-06-08T12:04:37.362272+00:00",
      "ingestion_date": "2026-06-08"
    },
    {
      "osm_id": 264515720,
      "city_key": "london",
      "city_name": "London",
      "name": "PizzaExpress",
      "amenity": "restaurant",
      "cuisine": "pizza",
      "latitude": 51.5178558,
      "longitude": -0.1187798,
      "opening_hours": null,
      "ingested_at_utc": "2026-06-08T12:04:37.362272+00:00",
      "ingestion_date": "2026-06-08"
    },
    {
      "osm_id": 264524115,
      "city_key": "london",
      "city_name": "London",
      "name": "Caffe Nomma Italian",
      "amenity": "cafe",
      "cuisine": null,
      "latitude": 51.5044528,
      "longitude": -0.0784709,
      "opening_hours": null,
      "ingested_at_utc": "2026-06-08T12:04:37.362272+00:00",
      "ingestion_date": "2026-06-08"
    },
    {
      "osm_id": 264587384,
      "city_key": "london",
      "city_name": "London",
      "name": "Mr. Wong's Wok & Box",
      "amenity": "restaurant",
      "cuisine": "chinese",
      "latitude": 51.5222849,
      "longitude": -0.0446563,
      "opening_hours": null,
      "ingested_at_utc": "2026-06-08T12:04:37.362272+00:00",
      "ingestion_date": "2026-06-08"
    },
    {
      "osm_id": 264625036,
      "city_key": "london",
      "city_name": "London",
      "name": "Jabinjia Hotpot",
      "amenity": "restaurant",
      "cuisine": "chinese",
      "latitude": 51.5271512,
      "longitude": -0.0828862,
      "opening_hours": null,
      "ingested_at_utc": "2026-06-08T12:04:37.362272+00:00",
      "ingestion_date": "2026-06-08"
    },
    {
      "osm_id": 264625038,
      "city_key": "london",
      "city_name": "London",
      "name": "Neds Noodle Bar",
      "amenity": "cafe",
      "cuisine": null,
      "latitude": 51.5270245,
      "longitude": -0.0837537,
      "opening_hours": null,
      "ingested_at_utc": "2026-06-08T12:04:37.362272+00:00",
      "ingestion_date": "2026-06-08"
    },
    {
      "osm_id": 264803330,
      "city_key": "london",
      "city_name": "London",
      "name": "PizzaExpress",
      "amenity": "restaurant",
      "cuisine": "pizza",
      "latitude": 51.4872825,
      "longitude": -0.1115445,
      "opening_hours": "Mo-We 11:30-22:00; Th-Sa 11:30-23:00; Su 11:30-22:00",
      "ingested_at_utc": "2026-06-08T12:04:37.362272+00:00",
      "ingestion_date": "2026-06-08"
    },
    {
      "osm_id": 264803332,
      "city_key": "london",
      "city_name": "London",
      "name": "Pizza Hut Delivery",
      "amenity": "fast_food",
      "cuisine": "pizza",
      "latitude": 51.4873118,
      "longitude": -0.1111439,
      "opening_hours": "Mo-Th 11:00-02:00; Fr-Sa 11:00-03:00; Su 11:00-02:00",
      "ingested_at_utc": "2026-06-08T12:04:37.362272+00:00",
      "ingestion_date": "2026-06-08"
    },
    {
      "osm_id": 265649514,
      "city_key": "london",
      "city_name": "London",
      "name": "Lemonia",
      "amenity": "restaurant",
      "cuisine": "greek",
      "latitude": 51.5416421,
      "longitude": -0.1570131,
      "opening_hours": null,
      "ingested_at_utc": "2026-06-08T12:04:37.362272+00:00",
      "ingestion_date": "2026-06-08"
    },
    {
      "osm_id": 265662788,
      "city_key": "london",
      "city_name": "London",
      "name": "Il Posto",
      "amenity": "restaurant",
      "cuisine": "italian",
      "latitude": 51.4957287,
      "longitude": -0.1419336,
      "opening_hours": null,
      "ingested_at_utc": "2026-06-08T12:04:37.362272+00:00",
      "ingestion_date": "2026-06-08"
    },
    {
      "osm_id": 265662939,
      "city_key": "london",
      "city_name": "London",
      "name": "Wrap City Kebab",
      "amenity": "fast_food",
      "cuisine": "kebab;burger",
      "latitude": 51.4957754,
      "longitude": -0.1419631,
      "opening_hours": null,
      "ingested_at_utc": "2026-06-08T12:04:37.362272+00:00",
      "ingestion_date": "2026-06-08"
    },
    {
      "osm_id": 266416976,
      "city_key": "london",
      "city_name": "London",
      "name": "Memsaheb",
      "amenity": "restaurant",
      "cuisine": "indian",
      "latitude": 51.4955582,
      "longitude": -0.0068108,
      "opening_hours": "Mo-Su 17:30-23:00",
      "ingested_at_utc": "2026-06-08T12:04:37.362272+00:00",
      "ingestion_date": "2026-06-08"
    },
    {
      "osm_id": 266481949,
      "city_key": "london",
      "city_name": "London",
      "name": "Aubaine",
      "amenity": "restaurant",
      "cuisine": "french",
      "latitude": 51.5109108,
      "longitude": -0.1393146,
      "opening_hours": null,
      "ingested_at_utc": "2026-06-08T12:04:37.362272+00:00",
      "ingestion_date": "2026-06-08"
    },
    {
      "osm_id": 267406074,
      "city_key": "london",
      "city_name": "London",
      "name": "Riverside Terrace Cafe",
      "amenity": "cafe",
      "cuisine": null,
      "latitude": 51.5059312,
      "longitude": -0.1171709,
      "opening_hours": "Mo-Tu 10:00-18:00; We-Su 10:00-20:30",
      "ingested_at_utc": "2026-06-08T12:04:37.362272+00:00",
      "ingestion_date": "2026-06-08"
    },
    {
      "osm_id": 268430894,
      "city_key": "london",
      "city_name": "London",
      "name": "Pret A Manger",
      "amenity": "fast_food",
      "cuisine": "sandwich",
      "latitude": 51.5071193,
      "longitude": -0.1077261,
      "opening_hours": "Mo-Fr 07:30-17:00",
      "ingested_at_utc": "2026-06-08T12:04:37.362272+00:00",
      "ingestion_date": "2026-06-08"
    },
    {
      "osm_id": 271409937,
      "city_key": "london",
      "city_name": "London",
      "name": "Clifton Restaurant",
      "amenity": "restaurant",
      "cuisine": null,
      "latitude": 51.4997405,
      "longitude": -0.026204,
      "opening_hours": null,
      "ingested_at_utc": "2026-06-08T12:04:37.362272+00:00",
      "ingestion_date": "2026-06-08"
    },
    {
      "osm_id": 271949508,
      "city_key": "london",
      "city_name": "London",
      "name": "Goodman",
      "amenity": "restaurant",
      "cuisine": "steak_house",
      "latitude": 51.5131214,
      "longitude": -0.1422056,
      "opening_hours": null,
      "ingested_at_utc": "2026-06-08T12:04:37.362272+00:00",
      "ingestion_date": "2026-06-08"
    },
    {
      "osm_id": 271949545,
      "city_key": "london",
      "city_name": "London",
      "name": "Mary's",
      "amenity": "restaurant",
      "cuisine": null,
      "latitude": 51.513393,
      "longitude": -0.1423314,
      "opening_hours": null,
      "ingested_at_utc": "2026-06-08T12:04:37.362272+00:00",
      "ingestion_date": "2026-06-08"
    },
    {
      "osm_id": 272077156,
      "city_key": "london",
      "city_name": "London",
      "name": "Uno",
      "amenity": "restaurant",
      "cuisine": "italian",
      "latitude": 51.4920195,
      "longitude": -0.140075,
      "opening_hours": null,
      "ingested_at_utc": "2026-06-08T12:04:37.362272+00:00",
      "ingestion_date": "2026-06-08"
    },
    {
      "osm_id": 272499359,
      "city_key": "london",
      "city_name": "London",
      "name": "Kinkao Thai Restaurant",
      "amenity": "restaurant",
      "cuisine": "thai",
      "latitude": 51.4861623,
      "longitude": -0.0136551,
      "opening_hours": "Mo-Th 12:00-15:00,17:30-23:00, Fr 12:00-15:00,17:30-24:00, Sa 12:00-24:00, Su 12:00-22:00",
      "ingested_at_utc": "2026-06-08T12:04:37.362272+00:00",
      "ingestion_date": "2026-06-08"
    },
    {
      "osm_id": 273217489,
      "city_key": "london",
      "city_name": "London",
      "name": "City Brunch",
      "amenity": "cafe",
      "cuisine": null,
      "latitude": 51.496539,
      "longitude": -0.1354705,
      "opening_hours": null,
      "ingested_at_utc": "2026-06-08T12:04:37.362272+00:00",
      "ingestion_date": "2026-06-08"
    },
    {
      "osm_id": 273217510,
      "city_key": "london",
      "city_name": "London",
      "name": "Cafe Nuvo",
      "amenity": "cafe",
      "cuisine": null,
      "latitude": 51.4964968,
      "longitude": -0.1357931,
      "opening_hours": "Mo-Fr 06:00-16:00; Sa 07:00-14:00",
      "ingested_at_utc": "2026-06-08T12:04:37.362272+00:00",
      "ingestion_date": "2026-06-08"
    },
    {
      "osm_id": 273535350,
      "city_key": "london",
      "city_name": "London",
      "name": "Albion Fish Bar",
      "amenity": "fast_food",
      "cuisine": "fish_and_chips",
      "latitude": 51.4994627,
      "longitude": -0.0528952,
      "opening_hours": null,
      "ingested_at_utc": "2026-06-08T12:04:37.362272+00:00",
      "ingestion_date": "2026-06-08"
    },
    {
      "osm_id": 273542295,
      "city_key": "london",
      "city_name": "London",
      "name": "Satay Bar",
      "amenity": "restaurant",
      "cuisine": null,
      "latitude": 51.4614013,
      "longitude": -0.11448,
      "opening_hours": "Mo-Th 12:00-23:00; Fr 12:00-24:00; Sa 00:00-01:00,13:00-24:00; Su 00:00-01:00,13:00-23:00",
      "ingested_at_utc": "2026-06-08T12:04:37.362272+00:00",
      "ingestion_date": "2026-06-08"
    },
    {
      "osm_id": 273933958,
      "city_key": "london",
      "city_name": "London",
      "name": "Costa",
      "amenity": "cafe",
      "cuisine": "coffee_shop",
      "latitude": 51.489,
      "longitude": -0.1920131,
      "opening_hours": null,
      "ingested_at_utc": "2026-06-08T12:04:37.362272+00:00",
      "ingestion_date": "2026-06-08"
    },
    {
      "osm_id": 273933965,
      "city_key": "london",
      "city_name": "London",
      "name": "Caffè du Coin",
      "amenity": "cafe",
      "cuisine": null,
      "latitude": 51.4899869,
      "longitude": -0.190421,
      "opening_hours": null,
      "ingested_at_utc": "2026-06-08T12:04:37.362272+00:00",
      "ingestion_date": "2026-06-08"
    },
    {
      "osm_id": 275405499,
      "city_key": "london",
      "city_name": "London",
      "name": "Moo Cantina Pimlico",
      "amenity": "restaurant",
      "cuisine": "argentinian",
      "latitude": 51.49107,
      "longitude": -0.135199,
      "opening_hours": null,
      "ingested_at_utc": "2026-06-08T12:04:37.362272+00:00",
      "ingestion_date": "2026-06-08"
    },
    {
      "osm_id": 275726796,
      "city_key": "london",
      "city_name": "London",
      "name": "Taro",
      "amenity": "restaurant",
      "cuisine": "japanese",
      "latitude": 51.49249,
      "longitude": -0.137906,
      "opening_hours": null,
      "ingested_at_utc": "2026-06-08T12:04:37.362272+00:00",
      "ingestion_date": "2026-06-08"
    },
    {
      "osm_id": 276076130,
      "city_key": "london",
      "city_name": "London",
      "name": "About Thyme",
      "amenity": "restaurant",
      "cuisine": null,
      "latitude": 51.4924729,
      "longitude": -0.1399743,
      "opening_hours": null,
      "ingested_at_utc": "2026-06-08T12:04:37.362272+00:00",
      "ingestion_date": "2026-06-08"
    },
    {
      "osm_id": 276676950,
      "city_key": "london",
      "city_name": "London",
      "name": "Pimlico Tandoori",
      "amenity": "restaurant",
      "cuisine": "indian",
      "latitude": 51.4889995,
      "longitude": -0.136883,
      "opening_hours": null,
      "ingested_at_utc": "2026-06-08T12:04:37.362272+00:00",
      "ingestion_date": "2026-06-08"
    },
    {
      "osm_id": 276757485,
      "city_key": "london",
      "city_name": "London",
      "name": "Treat's",
      "amenity": "cafe",
      "cuisine": null,
      "latitude": 51.4931224,
      "longitude": -0.1444353,
      "opening_hours": null,
      "ingested_at_utc": "2026-06-08T12:04:37.362272+00:00",
      "ingestion_date": "2026-06-08"
    },
    {
      "osm_id": 277337382,
      "city_key": "london",
      "city_name": "London",
      "name": "Caffè Concerto",
      "amenity": "restaurant",
      "cuisine": null,
      "latitude": 51.4983961,
      "longitude": -0.1664209,
      "opening_hours": null,
      "ingested_at_utc": "2026-06-08T12:04:37.362272+00:00",
      "ingestion_date": "2026-06-08"
    },
    {
      "osm_id": 277910542,
      "city_key": "london",
      "city_name": "London",
      "name": "Dilpasand",
      "amenity": "restaurant",
      "cuisine": null,
      "latitude": 51.514916,
      "longitude": -0.0635587,
      "opening_hours": null,
      "ingested_at_utc": "2026-06-08T12:04:37.362272+00:00",
      "ingestion_date": "2026-06-08"
    },
    {
      "osm_id": 279249388,
      "city_key": "london",
      "city_name": "London",
      "name": "Cafe Donatella",
      "amenity": "cafe",
      "cuisine": null,
      "latitude": 51.5154204,
      "longitude": -0.0603671,
      "opening_hours": null,
      "ingested_at_utc": "2026-06-08T12:04:37.362272+00:00",
      "ingestion_date": "2026-06-08"
    },
    {
      "osm_id": 280835741,
      "city_key": "london",
      "city_name": "London",
      "name": "No. Fifty Cheyne",
      "amenity": "restaurant",
      "cuisine": null,
      "latitude": 51.4833465,
      "longitude": -0.1694677,
      "opening_hours": null,
      "ingested_at_utc": "2026-06-08T12:04:37.362272+00:00",
      "ingestion_date": "2026-06-08"
    },
    {
      "osm_id": 281426069,
      "city_key": "london",
      "city_name": "London",
      "name": "Bella Italia",
      "amenity": "restaurant",
      "cuisine": "italian",
      "latitude": 51.511834,
      "longitude": -0.1876332,
      "opening_hours": "Mo-Th 11:00-22:00; Fr-Sa 11:00-23:00; Su 11:00-22:00",
      "ingested_at_utc": "2026-06-08T12:04:37.362272+00:00",
      "ingestion_date": "2026-06-08"
    },
    {
      "osm_id": 281426392,
      "city_key": "london",
      "city_name": "London",
      "name": "garum",
      "amenity": "restaurant",
      "cuisine": "italian",
      "latitude": 51.5125046,
      "longitude": -0.1874213,
      "opening_hours": null,
      "ingested_at_utc": "2026-06-08T12:04:37.362272+00:00",
      "ingestion_date": "2026-06-08"
    },
    {
      "osm_id": 281454982,
      "city_key": "london",
      "city_name": "London",
      "name": "Pret A Manger",
      "amenity": "fast_food",
      "cuisine": "sandwich",
      "latitude": 51.5204472,
      "longitude": -0.116957,
      "opening_hours": null,
      "ingested_at_utc": "2026-06-08T12:04:37.362272+00:00",
      "ingestion_date": "2026-06-08"
    },
    {
      "osm_id": 281454984,
      "city_key": "london",
      "city_name": "London",
      "name": "Subway",
      "amenity": "fast_food",
      "cuisine": "sandwich",
      "latitude": 51.52042,
      "longitude": -0.117026,
      "opening_hours": null,
      "ingested_at_utc": "2026-06-08T12:04:37.362272+00:00",
      "ingestion_date": "2026-06-08"
    },
    {
      "osm_id": 281851003,
      "city_key": "london",
      "city_name": "London",
      "name": "The Courts Café at The Regent's Park",
      "amenity": "cafe",
      "cuisine": null,
      "latitude": 51.525503,
      "longitude": -0.1538118,
      "opening_hours": null,
      "ingested_at_utc": "2026-06-08T12:04:37.362272+00:00",
      "ingestion_date": "2026-06-08"
    },
    {
      "osm_id": 282117011,
      "city_key": "london",
      "city_name": "London",
      "name": "Tea Terrace",
      "amenity": "cafe",
      "cuisine": null,
      "latitude": 51.4804805,
      "longitude": -0.1589365,
      "opening_hours": null,
      "ingested_at_utc": "2026-06-08T12:04:37.362272+00:00",
      "ingestion_date": "2026-06-08"
    },
    {
      "osm_id": 282686484,
      "city_key": "london",
      "city_name": "London",
      "name": "PizzaExpress",
      "amenity": "restaurant",
      "cuisine": "pizza",
      "latitude": 51.5056639,
      "longitude": -0.1151021,
      "opening_hours": null,
      "ingested_at_utc": "2026-06-08T12:04:37.362272+00:00",
      "ingestion_date": "2026-06-08"
    },
    {
      "osm_id": 282686485,
      "city_key": "london",
      "city_name": "London",
      "name": "Honest Burgers",
      "amenity": "restaurant",
      "cuisine": "burger",
      "latitude": 51.5052621,
      "longitude": -0.1167109,
      "opening_hours": "Mo-Sa 10:30-23:00; Su 10:30-22:30",
      "ingested_at_utc": "2026-06-08T12:04:37.362272+00:00",
      "ingestion_date": "2026-06-08"
    },
    {
      "osm_id": 282686486,
      "city_key": "london",
      "city_name": "London",
      "name": "Côte Brasserie",
      "amenity": "restaurant",
      "cuisine": "french",
      "latitude": 51.5053303,
      "longitude": -0.1169288,
      "opening_hours": "Mo-Fr 09:00-24:00; Sa 10:00-24:00; Su 10:00-22:00",
      "ingested_at_utc": "2026-06-08T12:04:37.362272+00:00",
      "ingestion_date": "2026-06-08"
    },
    {
      "osm_id": 282686488,
      "city_key": "london",
      "city_name": "London",
      "name": "Strada",
      "amenity": "restaurant",
      "cuisine": "italian",
      "latitude": 51.5058554,
      "longitude": -0.1176662,
      "opening_hours": "Mo-We 08:00-23:00; Th-Sa 08:00-24:00; Su 11:30-22:00",
      "ingested_at_utc": "2026-06-08T12:04:37.362272+00:00",
      "ingestion_date": "2026-06-08"
    },
    {
      "osm_id": 282686489,
      "city_key": "london",
      "city_name": "London",
      "name": "Pret A Manger",
      "amenity": "fast_food",
      "cuisine": "sandwich",
      "latitude": 51.5060836,
      "longitude": -0.117399,
      "opening_hours": "07:00-20:00",
      "ingested_at_utc": "2026-06-08T12:04:37.362272+00:00",
      "ingestion_date": "2026-06-08"
    },
    {
      "osm_id": 286493172,
      "city_key": "london",
      "city_name": "London",
      "name": "Archway Cafe",
      "amenity": "cafe",
      "cuisine": null,
      "latitude": 51.4991305,
      "longitude": -0.0736417,
      "opening_hours": null,
      "ingested_at_utc": "2026-06-08T12:04:37.362272+00:00",
      "ingestion_date": "2026-06-08"
    },
    {
      "osm_id": 286509356,
      "city_key": "london",
      "city_name": "London",
      "name": "Crystal China",
      "amenity": "restaurant",
      "cuisine": "chinese",
      "latitude": 51.49616,
      "longitude": -0.0824545,
      "opening_hours": null,
      "ingested_at_utc": "2026-06-08T12:04:37.362272+00:00",
      "ingestion_date": "2026-06-08"
    },
    {
      "osm_id": 286509357,
      "city_key": "london",
      "city_name": "London",
      "name": "Tower Tandoori",
      "amenity": "restaurant",
      "cuisine": "indian",
      "latitude": 51.4961089,
      "longitude": -0.0825286,
      "opening_hours": null,
      "ingested_at_utc": "2026-06-08T12:04:37.362272+00:00",
      "ingestion_date": "2026-06-08"
    },
    {
      "osm_id": 287453551,
      "city_key": "london",
      "city_name": "London",
      "name": "Simply Indian",
      "amenity": "restaurant",
      "cuisine": null,
      "latitude": 51.5006223,
      "longitude": -0.0914796,
      "opening_hours": null,
      "ingested_at_utc": "2026-06-08T12:04:37.362272+00:00",
      "ingestion_date": "2026-06-08"
    },
    {
      "osm_id": 287453553,
      "city_key": "london",
      "city_name": "London",
      "name": "Twists Sandwich Bar",
      "amenity": "cafe",
      "cuisine": null,
      "latitude": 51.5005539,
      "longitude": -0.0914286,
      "opening_hours": null,
      "ingested_at_utc": "2026-06-08T12:04:37.362272+00:00",
      "ingestion_date": "2026-06-08"
    },
    {
      "osm_id": 287457769,
      "city_key": "london",
      "city_name": "London",
      "name": "Hassan Bros. Steak & Kebab House",
      "amenity": "fast_food",
      "cuisine": "kebab;burger;wraps",
      "latitude": 51.4960552,
      "longitude": -0.0830153,
      "opening_hours": null,
      "ingested_at_utc": "2026-06-08T12:04:37.362272+00:00",
      "ingestion_date": "2026-06-08"
    },
    {
      "osm_id": 287457771,
      "city_key": "london",
      "city_name": "London",
      "name": "Hing Loong Noodle House",
      "amenity": "fast_food",
      "cuisine": "chinese",
      "latitude": 51.4957073,
      "longitude": -0.083467,
      "opening_hours": "Mo,We-Sa 16:30-23:00; Su 04:30-23:00",
      "ingested_at_utc": "2026-06-08T12:04:37.362272+00:00",
      "ingestion_date": "2026-06-08"
    },
    {
      "osm_id": 287457772,
      "city_key": "london",
      "city_name": "London",
      "name": "Tower Mangal",
      "amenity": "fast_food",
      "cuisine": "kebab",
      "latitude": 51.4956707,
      "longitude": -0.0835033,
      "opening_hours": "Mo-Su 11:00-22:00",
      "ingested_at_utc": "2026-06-08T12:04:37.362272+00:00",
      "ingestion_date": "2026-06-08"
    },
    {
      "osm_id": 289425959,
      "city_key": "london",
      "city_name": "London",
      "name": "Village Kebab House",
      "amenity": "fast_food",
      "cuisine": "kebab",
      "latitude": 51.4913233,
      "longitude": -0.0902584,
      "opening_hours": null,
      "ingested_at_utc": "2026-06-08T12:04:37.362272+00:00",
      "ingestion_date": "2026-06-08"
    },
    {
      "osm_id": 290128614,
      "city_key": "london",
      "city_name": "London",
      "name": "Wagamama",
      "amenity": "restaurant",
      "cuisine": "asian",
      "latitude": 51.5057566,
      "longitude": -0.1177658,
      "opening_hours": "Mo-Sa 11:00-23:00;Su 11:00-22:00",
      "ingested_at_utc": "2026-06-08T12:04:37.362272+00:00",
      "ingestion_date": "2026-06-08"
    },
    {
      "osm_id": 291671973,
      "city_key": "london",
      "city_name": "London",
      "name": "Burger King",
      "amenity": "fast_food",
      "cuisine": "burger",
      "latitude": 51.4505415,
      "longitude": -0.1474761,
      "opening_hours": "Mo-Su 11:00-22:00",
      "ingested_at_utc": "2026-06-08T12:04:37.362272+00:00",
      "ingestion_date": "2026-06-08"
    },
    {
      "osm_id": 292011536,
      "city_key": "london",
      "city_name": "London",
      "name": "Café on the Hill",
      "amenity": "cafe",
      "cuisine": "coffee_shop",
      "latitude": 51.4548973,
      "longitude": -0.1193419,
      "opening_hours": null,
      "ingested_at_utc": "2026-06-08T12:04:37.362272+00:00",
      "ingestion_date": "2026-06-08"
    },
    {
      "osm_id": 292011853,
      "city_key": "london",
      "city_name": "London",
      "name": "Mamma's Pizza",
      "amenity": "fast_food",
      "cuisine": "pizza",
      "latitude": 51.4548993,
      "longitude": -0.1198368,
      "opening_hours": null,
      "ingested_at_utc": "2026-06-08T12:04:37.362272+00:00",
      "ingestion_date": "2026-06-08"
    },
    {
      "osm_id": 292011982,
      "city_key": "london",
      "city_name": "London",
      "name": "Café Tana",
      "amenity": "cafe",
      "cuisine": "coffee_shop",
      "latitude": 51.4547019,
      "longitude": -0.1199703,
      "opening_hours": null,
      "ingested_at_utc": "2026-06-08T12:04:37.362272+00:00",
      "ingestion_date": "2026-06-08"
    },
    {
      "osm_id": 292163599,
      "city_key": "london",
      "city_name": "London",
      "name": "Vinoteca Farringdon",
      "amenity": "restaurant",
      "cuisine": null,
      "latitude": 51.520045,
      "longitude": -0.1018834,
      "opening_hours": null,
      "ingested_at_utc": "2026-06-08T12:04:37.362272+00:00",
      "ingestion_date": "2026-06-08"
    },
    {
      "osm_id": 292384037,
      "city_key": "london",
      "city_name": "London",
      "name": "The Cinnamon Club",
      "amenity": "restaurant",
      "cuisine": "indian;curry",
      "latitude": 51.4975224,
      "longitude": -0.129607,
      "opening_hours": null,
      "ingested_at_utc": "2026-06-08T12:04:37.362272+00:00",
      "ingestion_date": "2026-06-08"
    }
  ]
}